<geonames style="MEDIUM">
<geoname>
<toponymName>Bargen</toponymName>
<name>Bargen</name>
<lat>53.08417</lat>
<lng>4.83472</lng>
<geonameId>2759422</geonameId>
<countryCode>NL</countryCode>
<countryName>Netherlands</countryName>
<fcl>P</fcl>
<fcode>PPL</fcode>
</geoname>
<geoname>
<toponymName>Bartimeus Hoeve</toponymName>
<name>Bartimeus Hoeve</name>
<lat>53.08333</lat>
<lng>4.85</lng>
<geonameId>2759393</geonameId>
<countryCode>NL</countryCode>
<countryName>Netherlands</countryName>
<fcl>S</fcl>
<fcode>FRM</fcode>
</geoname>
<geoname>
<toponymName>Bleekersvallei</toponymName>
<name>Bleekersvallei</name>
<lat>53.0671</lat>
<lng>4.73448</lng>
<geonameId>2758843</geonameId>
<countryCode>NL</countryCode>
<countryName>Netherlands</countryName>
<fcl>L</fcl>
<fcode>PRK</fcode>
</geoname>
<geoname>
<toponymName>Blok</toponymName>
<name>Blok</name>
<lat>53.06611</lat>
<lng>4.79944</lng>
<geonameId>2758792</geonameId>
<countryCode>NL</countryCode>
<countryName>Netherlands</countryName>
<fcl>H</fcl>
<fcode>MRSH</fcode>
</geoname>
<geoname>
<toponymName>Buitendijk</toponymName>
<name>Buitendijk</name>
<lat>53.02276</lat>
<lng>4.76577</lng>
<geonameId>2758148</geonameId>
<countryCode>NL</countryCode>
<countryName>Netherlands</countryName>
<fcl>L</fcl>
<fcode>LCTY</fcode>
</geoname>
<geoname>
<toponymName>Burgernieuwland</toponymName>
<name>Burgernieuwland</name>
<lat>53.0736</lat>
<lng>4.78536</lng>
<geonameId>2758087</geonameId>
<countryCode>NL</countryCode>
<countryName>Netherlands</countryName>
<fcl>T</fcl>
<fcode>PLDR</fcode>
</geoname>
<geoname>
<toponymName>De Cocksdorp</toponymName>
<name>De Cocksdorp</name>
<lat>53.15667</lat>
<lng>4.87083</lng>
<geonameId>2757710</geonameId>
<countryCode>NL</countryCode>
<countryName>Netherlands</countryName>
<fcl>P</fcl>
<fcode>PPL</fcode>
</geoname>
<geoname>
<toponymName>De Geul</toponymName>
<name>De Geul</name>
<lat>53.0091</lat>
<lng>4.73689</lng>
<geonameId>2757629</geonameId>
<countryCode>NL</countryCode>
<countryName>Netherlands</countryName>
<fcl>L</fcl>
<fcode>RESN</fcode>
</geoname>
<geoname>
<toponymName>De Hemmer</toponymName>
<name>De Hemmer</name>
<lat>53.03623</lat>
<lng>4.76082</lng>
<geonameId>2757553</geonameId>
<countryCode>NL</countryCode>
<countryName>Netherlands</countryName>
<fcl>T</fcl>
<fcode>PLDR</fcode>
</geoname>
<geoname>
<toponymName>De Hors</toponymName>
<name>De Hors</name>
<lat>52.99716</lat>
<lng>4.73183</lng>
<geonameId>2757495</geonameId>
<countryCode>NL</countryCode>
<countryName>Netherlands</countryName>
<fcl>L</fcl>
<fcode>LCTY</fcode>
</geoname>
<geoname>
<toponymName>De Kemphaan</toponymName>
<name>De Kemphaan</name>
<lat>53.08121</lat>
<lng>4.79765</lng>
<geonameId>6950005</geonameId>
<countryCode>NL</countryCode>
<countryName>Netherlands</countryName>
<fcl>S</fcl>
<fcode>MLWND</fcode>
</geoname>
<geoname>
<toponymName>De Koog</toponymName>
<name>De Koog</name>
<lat>53.0975</lat>
<lng>4.76111</lng>
<geonameId>2757417</geonameId>
<countryCode>NL</countryCode>
<countryName>Netherlands</countryName>
<fcl>P</fcl>
<fcode>PPL</fcode>
</geoname>
<geoname>
<toponymName>De Krim</toponymName>
<name>De Krim</name>
<lat>53.15172</lat>
<lng>4.85361</lng>
<geonameId>2757398</geonameId>
<countryCode>NL</countryCode>
<countryName>Netherlands</countryName>
<fcl>S</fcl>
<fcode>EST</fcode>
</geoname>
<geoname>
<toponymName>De Leemput</toponymName>
<name>De Leemput</name>
<lat>53.05757</lat>
<lng>4.85762</lng>
<geonameId>2757363</geonameId>
<countryCode>NL</countryCode>
<countryName>Netherlands</countryName>
<fcl>H</fcl>
<fcode>MRSH</fcode>
</geoname>
<geoname>
<toponymName>De Mars</toponymName>
<name>De Mars</name>
<lat>53.06285</lat>
<lng>4.8151</lng>
<geonameId>2757308</geonameId>
<countryCode>NL</countryCode>
<countryName>Netherlands</countryName>
<fcl>L</fcl>
<fcode>LCTY</fcode>
</geoname>
<geoname>
<toponymName>De Muy</toponymName>
<name>De Muy</name>
<lat>53.11624</lat>
<lng>4.77897</lng>
<geonameId>2757263</geonameId>
<countryCode>NL</countryCode>
<countryName>Netherlands</countryName>
<fcl>L</fcl>
<fcode>RESN</fcode>
</geoname>
<geoname>
<toponymName>De Naal</toponymName>
<name>De Naal</name>
<lat>53.02393</lat>
<lng>4.74283</lng>
<geonameId>2757262</geonameId>
<countryCode>NL</countryCode>
<countryName>Netherlands</countryName>
<fcl>L</fcl>
<fcode>LCTY</fcode>
</geoname>
<geoname>
<toponymName>De Nederlanden</toponymName>
<name>De Nederlanden</name>
<lat>53.11046</lat>
<lng>4.78242</lng>
<geonameId>2757235</geonameId>
<countryCode>NL</countryCode>
<countryName>Netherlands</countryName>
<fcl>T</fcl>
<fcode>DUNE</fcode>
</geoname>
<geoname>
<toponymName>De Nes</toponymName>
<name>De Nes</name>
<lat>53.08083</lat>
<lng>4.86111</lng>
<geonameId>2757227</geonameId>
<countryCode>NL</countryCode>
<countryName>Netherlands</countryName>
<fcl>P</fcl>
<fcode>PPL</fcode>
</geoname>
<geoname>
<toponymName>De Schorren</toponymName>
<name>De Schorren</name>
<lat>53.13447</lat>
<lng>4.9045</lng>
<geonameId>2757060</geonameId>
<countryCode>NL</countryCode>
<countryName>Netherlands</countryName>
<fcl>L</fcl>
<fcode>RESN</fcode>
</geoname>
<geoname>
<toponymName>De Slufter</toponymName>
<name>De Slufter</name>
<lat>53.14476</lat>
<lng>4.82156</lng>
<geonameId>2757053</geonameId>
<countryCode>NL</countryCode>
<countryName>Netherlands</countryName>
<fcl>L</fcl>
<fcode>RESN</fcode>
</geoname>
<geoname>
<toponymName>De Snippen</toponymName>
<name>De Snippen</name>
<lat>53.05</lat>
<lng>4.85</lng>
<geonameId>2757050</geonameId>
<countryCode>NL</countryCode>
<countryName>Netherlands</countryName>
<fcl>L</fcl>
<fcode>RESN</fcode>
</geoname>
<geoname>
<toponymName>De Traanroeier</toponymName>
<name>De Traanroeier</name>
<lat>53.0386</lat>
<lng>4.84843</lng>
<geonameId>6950072</geonameId>
<countryCode>NL</countryCode>
<countryName>Netherlands</countryName>
<fcl>S</fcl>
<fcode>MLWND</fcode>
</geoname>
<geoname>
<toponymName>De Waal</toponymName>
<name>De Waal</name>
<lat>53.0725</lat>
<lng>4.82361</lng>
<geonameId>2756962</geonameId>
<countryCode>NL</countryCode>
<countryName>Netherlands</countryName>
<fcl>P</fcl>
<fcode>PPL</fcode>
</geoname>
<geoname>
<toponymName>De Westen</toponymName>
<name>De Westen</name>
<lat>53.04667</lat>
<lng>4.75556</lng>
<geonameId>2756944</geonameId>
<countryCode>NL</countryCode>
<countryName>Netherlands</countryName>
<fcl>P</fcl>
<fcode>PPL</fcode>
</geoname>
<geoname>
<toponymName>De Zandkes</toponymName>
<name>De Zandkes</name>
<lat>53.06667</lat>
<lng>4.86667</lng>
<geonameId>2756917</geonameId>
<countryCode>NL</countryCode>
<countryName>Netherlands</countryName>
<fcl>L</fcl>
<fcode>RESN</fcode>
</geoname>
<geoname>
<toponymName>Den Burg</toponymName>
<name>Den Burg</name>
<lat>53.05417</lat>
<lng>4.79722</lng>
<geonameId>2757244</geonameId>
<countryCode>NL</countryCode>
<countryName>Netherlands</countryName>
<fcl>P</fcl>
<fcode>PPL</fcode>
</geoname>
<geoname>
<toponymName>Den Hoorn</toponymName>
<name>Den Hoorn</name>
<lat>53.025</lat>
<lng>4.75139</lng>
<geonameId>2757213</geonameId>
<countryCode>NL</countryCode>
<countryName>Netherlands</countryName>
<fcl>P</fcl>
<fcode>PPL</fcode>
</geoname>
<geoname>
<toponymName>Dijkmanshuizen</toponymName>
<name>Dijkmanshuizen</name>
<lat>53.06667</lat>
<lng>4.85</lng>
<geonameId>2756831</geonameId>
<countryCode>NL</countryCode>
<countryName>Netherlands</countryName>
<fcl>L</fcl>
<fcode>RESN</fcode>
</geoname>
<geoname>
<toponymName>Dijkmanshuizen</toponymName>
<name>Dijkmanshuizen</name>
<lat>53.05417</lat>
<lng>4.8625</lng>
<geonameId>2756832</geonameId>
<countryCode>NL</countryCode>
<countryName>Netherlands</countryName>
<fcl>P</fcl>
<fcode>PPL</fcode>
</geoname>
<geoname>
<toponymName>Driehuizen</toponymName>
<name>Driehuizen</name>
<lat>53.04667</lat>
<lng>4.77639</lng>
<geonameId>2756593</geonameId>
<countryCode>NL</countryCode>
<countryName>Netherlands</countryName>
<fcl>P</fcl>
<fcode>PPL</fcode>
</geoname>
<geoname>
<toponymName>Duinpark</toponymName>
<name>Duinpark</name>
<lat>53.07453</lat>
<lng>4.73902</lng>
<geonameId>2756517</geonameId>
<countryCode>NL</countryCode>
<countryName>Netherlands</countryName>
<fcl>L</fcl>
<fcode>PRK</fcode>
</geoname>
<geoname>
<toponymName>Eierlandse Duinen</toponymName>
<name>Eierlandse Duinen</name>
<lat>53.16936</lat>
<lng>4.83969</lng>
<geonameId>2756290</geonameId>
<countryCode>NL</countryCode>
<countryName>Netherlands</countryName>
<fcl>T</fcl>
<fcode>DUNE</fcode>
</geoname>
<geoname>
<toponymName>Everstekoog</toponymName>
<name>Everstekoog</name>
<lat>53.08211</lat>
<lng>4.77764</lng>
<geonameId>2755963</geonameId>
<countryCode>NL</countryCode>
<countryName>Netherlands</countryName>
<fcl>L</fcl>
<fcode>LCTY</fcode>
</geoname>
<geoname>
<toponymName>Fonteinsnol</toponymName>
<name>Fonteinsnol</name>
<lat>53.05</lat>
<lng>4.73333</lng>
<geonameId>2755864</geonameId>
<countryCode>NL</countryCode>
<countryName>Netherlands</countryName>
<fcl>L</fcl>
<fcode>PRK</fcode>
</geoname>
<geoname>
<toponymName>Gemeente Texel</toponymName>
<name>Gemeente Texel</name>
<lat>53.07883</lat>
<lng>4.81166</lng>
<geonameId>2746383</geonameId>
<countryCode>NL</countryCode>
<countryName>Netherlands</countryName>
<fcl>A</fcl>
<fcode>ADM2</fcode>
</geoname>
<geoname>
<toponymName>Gerritsland</toponymName>
<name>Gerritsland</name>
<lat>53.06503</lat>
<lng>4.76754</lng>
<geonameId>2755570</geonameId>
<countryCode>NL</countryCode>
<countryName>Netherlands</countryName>
<fcl>T</fcl>
<fcode>PLDR</fcode>
</geoname>
<geoname>
<toponymName>Grote Vlak</toponymName>
<name>Grote Vlak</name>
<lat>53.02645</lat>
<lng>4.71828</lng>
<geonameId>2755060</geonameId>
<countryCode>NL</countryCode>
<countryName>Netherlands</countryName>
<fcl>T</fcl>
<fcode>DUNE</fcode>
</geoname>
<geoname>
<toponymName>Hampshire Classic Opduin</toponymName>
<name>Hampshire Classic Opduin</name>
<lat>53.098</lat>
<lng>4.7593</lng>
<geonameId>6522984</geonameId>
<countryCode>NL</countryCode>
<countryName>Netherlands</countryName>
<fcl>S</fcl>
<fcode>HTL</fcode>
</geoname>
<geoname>
<toponymName>Hanenplas</toponymName>
<name>Hanenplas</name>
<lat>53.15</lat>
<lng>4.85</lng>
<geonameId>2754892</geonameId>
<countryCode>NL</countryCode>
<countryName>Netherlands</countryName>
<fcl>L</fcl>
<fcode>LCTY</fcode>
</geoname>
<geoname>
<toponymName>Harkebuurt</toponymName>
<name>Harkebuurt</name>
<lat>53.08667</lat>
<lng>4.8625</lng>
<geonameId>2754822</geonameId>
<countryCode>NL</countryCode>
<countryName>Netherlands</countryName>
<fcl>P</fcl>
<fcode>PPL</fcode>
</geoname>
<geoname>
<toponymName>Het Noorden</toponymName>
<name>Het Noorden</name>
<lat>53.10306</lat>
<lng>4.89556</lng>
<geonameId>6950033</geonameId>
<countryCode>NL</countryCode>
<countryName>Netherlands</countryName>
<fcl>S</fcl>
<fcode>MLWND</fcode>
</geoname>
<geoname>
<toponymName>Hooge Berg</toponymName>
<name>Hooge Berg</name>
<lat>53.03333</lat>
<lng>4.81667</lng>
<geonameId>2753774</geonameId>
<countryCode>NL</countryCode>
<countryName>Netherlands</countryName>
<fcl>L</fcl>
<fcode>RESN</fcode>
</geoname>
<geoname>
<toponymName>Hoogeberg</toponymName>
<name>Hoogeberg</name>
<lat>53.04362</lat>
<lng>4.8172</lng>
<geonameId>2753775</geonameId>
<countryCode>NL</countryCode>
<countryName>Netherlands</countryName>
<fcl>P</fcl>
<fcode>PPL</fcode>
</geoname>
<geoname>
<toponymName>Hoogezandskil</toponymName>
<name>Hoogezandskil</name>
<lat>53.12549</lat>
<lng>4.83768</lng>
<geonameId>2753702</geonameId>
<countryCode>NL</countryCode>
<countryName>Netherlands</countryName>
<fcl>H</fcl>
<fcode>CNL</fcode>
</geoname>
<geoname>
<toponymName>Hoornder Nieuwland</toponymName>
<name>Hoornder Nieuwland</name>
<lat>53.01409</lat>
<lng>4.76276</lng>
<geonameId>2753631</geonameId>
<countryCode>NL</countryCode>
<countryName>Netherlands</countryName>
<fcl>L</fcl>
<fcode>LCTY</fcode>
</geoname>
<geoname>
<toponymName>Hotel Cooghen</toponymName>
<name>Hotel Cooghen</name>
<lat>53.0998</lat>
<lng>4.7627</lng>
<geonameId>6491257</geonameId>
<countryCode>NL</countryCode>
<countryName>Netherlands</countryName>
<fcl>S</fcl>
<fcode>HTL</fcode>
</geoname>
<geoname>
<toponymName>Jan Aysloot</toponymName>
<name>Jan Aysloot</name>
<lat>53.06714</lat>
<lng>4.80193</lng>
<geonameId>2753279</geonameId>
<countryCode>NL</countryCode>
<countryName>Netherlands</countryName>
<fcl>H</fcl>
<fcode>CNL</fcode>
</geoname>
<geoname>
<toponymName>Kampeersnol</toponymName>
<name>Kampeersnol</name>
<lat>53.05</lat>
<lng>4.73333</lng>
<geonameId>2753108</geonameId>
<countryCode>NL</countryCode>
<countryName>Netherlands</countryName>
<fcl>L</fcl>
<fcode>PRK</fcode>
</geoname>
<geoname>
<toponymName>Klein Zeeland</toponymName>
<name>Klein Zeeland</name>
<lat>53.11996</lat>
<lng>4.88914</lng>
<geonameId>2752662</geonameId>
<countryCode>NL</countryCode>
<countryName>Netherlands</countryName>
<fcl>L</fcl>
<fcode>LCTY</fcode>
</geoname>
<geoname>
<toponymName>Koogerveld</toponymName>
<name>Koogerveld</name>
<lat>53.09997</lat>
<lng>4.78426</lng>
<geonameId>2752475</geonameId>
<countryCode>NL</countryCode>
<countryName>Netherlands</countryName>
<fcl>P</fcl>
<fcode>PPL</fcode>
</geoname>
<geoname>
<toponymName>Korverskooi</toponymName>
<name>Korverskooi</name>
<lat>53.10638</lat>
<lng>4.79338</lng>
<geonameId>2752388</geonameId>
<countryCode>NL</countryCode>
<countryName>Netherlands</countryName>
<fcl>L</fcl>
<fcode>RESN</fcode>
</geoname>
<geoname>
<toponymName>Laagwaal</toponymName>
<name>Laagwaal</name>
<lat>53.07095</lat>
<lng>4.81939</lng>
<geonameId>2752096</geonameId>
<countryCode>NL</countryCode>
<countryName>Netherlands</countryName>
<fcl>H</fcl>
<fcode>CNL</fcode>
</geoname>
<geoname>
<toponymName>Laan</toponymName>
<name>Laan</name>
<lat>52.99194</lat>
<lng>4.75272</lng>
<geonameId>2752087</geonameId>
<countryCode>NL</countryCode>
<countryName>Netherlands</countryName>
<fcl>H</fcl>
<fcode>FLTT</fcode>
</geoname>
<geoname>
<toponymName>Loodsmansduin</toponymName>
<name>Loodsmansduin</name>
<lat>53.01667</lat>
<lng>4.71667</lng>
<geonameId>2751472</geonameId>
<countryCode>NL</countryCode>
<countryName>Netherlands</countryName>
<fcl>T</fcl>
<fcode>DUNE</fcode>
</geoname>
<geoname>
<toponymName>Midden-Eierland</toponymName>
<name>Midden-Eierland</name>
<lat>53.12917</lat>
<lng>4.86111</lng>
<geonameId>2750856</geonameId>
<countryCode>NL</countryCode>
<countryName>Netherlands</countryName>
<fcl>P</fcl>
<fcode>PPL</fcode>
</geoname>
<geoname>
<toponymName>Mok</toponymName>
<name>Mok</name>
<lat>53.00368</lat>
<lng>4.76506</lng>
<geonameId>2750743</geonameId>
<countryCode>NL</countryCode>
<countryName>Netherlands</countryName>
<fcl>H</fcl>
<fcode>BAY</fcode>
</geoname>
<geoname>
<toponymName>Moksloot</toponymName>
<name>Moksloot</name>
<lat>53.01962</lat>
<lng>4.72309</lng>
<geonameId>2750740</geonameId>
<countryCode>NL</countryCode>
<countryName>Netherlands</countryName>
<fcl>H</fcl>
<fcode>CNL</fcode>
</geoname>
<geoname>
<toponymName>Molenbuurt</toponymName>
<name>Molenbuurt</name>
<lat>53.08083</lat>
<lng>4.84583</lng>
<geonameId>2750717</geonameId>
<countryCode>NL</countryCode>
<countryName>Netherlands</countryName>
<fcl>P</fcl>
<fcode>PPL</fcode>
</geoname>
<geoname>
<toponymName>Molenkil</toponymName>
<name>Molenkil</name>
<lat>53.08347</lat>
<lng>4.80065</lng>
<geonameId>2750686</geonameId>
<countryCode>NL</countryCode>
<countryName>Netherlands</countryName>
<fcl>H</fcl>
<fcode>CNL</fcode>
</geoname>
<geoname>
<toponymName>Molenkil</toponymName>
<name>Molenkil</name>
<lat>53.08333</lat>
<lng>4.8</lng>
<geonameId>2750685</geonameId>
<countryCode>NL</countryCode>
<countryName>Netherlands</countryName>
<fcl>L</fcl>
<fcode>RESN</fcode>
</geoname>
<geoname>
<toponymName>Neeltjesnol</toponymName>
<name>Neeltjesnol</name>
<lat>53</lat>
<lng>4.75</lng>
<geonameId>2750457</geonameId>
<countryCode>NL</countryCode>
<countryName>Netherlands</countryName>
<fcl>T</fcl>
<fcode>DUNE</fcode>
</geoname>
<geoname>
<toponymName>Nieuweschild</toponymName>
<name>Nieuweschild</name>
<lat>53.07417</lat>
<lng>4.8875</lng>
<geonameId>2750247</geonameId>
<countryCode>NL</countryCode>
<countryName>Netherlands</countryName>
<fcl>P</fcl>
<fcode>PPL</fcode>
</geoname>
<geoname>
<toponymName>Noorderbuurt</toponymName>
<name>Noorderbuurt</name>
<lat>53.08833</lat>
<lng>4.85556</lng>
<geonameId>2749953</geonameId>
<countryCode>NL</countryCode>
<countryName>Netherlands</countryName>
<fcl>P</fcl>
<fcode>PPL</fcode>
</geoname>
<geoname>
<toponymName>Noordhaffel</toponymName>
<name>Noordhaffel</name>
<lat>53.04144</lat>
<lng>4.7956</lng>
<geonameId>2749887</geonameId>
<countryCode>NL</countryCode>
<countryName>Netherlands</countryName>
<fcl>P</fcl>
<fcode>PPL</fcode>
</geoname>
<geoname>
<toponymName>Ockesnol</toponymName>
<name>Ockesnol</name>
<lat>53.04509</lat>
<lng>4.73629</lng>
<geonameId>2749738</geonameId>
<countryCode>NL</countryCode>
<countryName>Netherlands</countryName>
<fcl>T</fcl>
<fcode>HLL</fcode>
</geoname>
<geoname>
<toponymName>Ongeren</toponymName>
<name>Ongeren</name>
<lat>53.07167</lat>
<lng>4.80417</lng>
<geonameId>2749592</geonameId>
<countryCode>NL</countryCode>
<countryName>Netherlands</countryName>
<fcl>P</fcl>
<fcode>PPL</fcode>
</geoname>
<geoname>
<toponymName>Onrust</toponymName>
<name>Onrust</name>
<lat>52.99082</lat>
<lng>4.72658</lng>
<geonameId>2749584</geonameId>
<countryCode>NL</countryCode>
<countryName>Netherlands</countryName>
<fcl>T</fcl>
<fcode>BCH</fcode>
</geoname>
<geoname>
<toponymName>Oost</toponymName>
<name>Oost</name>
<lat>53.0975</lat>
<lng>4.89167</lng>
<geonameId>2749551</geonameId>
<countryCode>NL</countryCode>
<countryName>Netherlands</countryName>
<fcl>P</fcl>
<fcode>PPL</fcode>
</geoname>
<geoname>
<toponymName>Oosterend</toponymName>
<name>Oosterend</name>
<lat>53.085</lat>
<lng>4.875</lng>
<geonameId>2749475</geonameId>
<countryCode>NL</countryCode>
<countryName>Netherlands</countryName>
<fcl>P</fcl>
<fcode>PPL</fcode>
</geoname>
<geoname>
<toponymName>Oostkaap</toponymName>
<name>Oostkaap</name>
<lat>53.08333</lat>
<lng>4.9</lng>
<geonameId>2749363</geonameId>
<countryCode>NL</countryCode>
<countryName>Netherlands</countryName>
<fcl>T</fcl>
<fcode>PT</fcode>
</geoname>
<geoname>
<toponymName>Oude Schans</toponymName>
<name>Oude Schans</name>
<lat>53.03333</lat>
<lng>4.81667</lng>
<geonameId>2749011</geonameId>
<countryCode>NL</countryCode>
<countryName>Netherlands</countryName>
<fcl>P</fcl>
<fcode>PPL</fcode>
</geoname>
<geoname>
<toponymName>Oudeschild</toponymName>
<name>Oudeschild</name>
<lat>53.03917</lat>
<lng>4.84722</lng>
<geonameId>2749009</geonameId>
<countryCode>NL</countryCode>
<countryName>Netherlands</countryName>
<fcl>P</fcl>
<fcode>PPL</fcode>
</geoname>
<geoname>
<toponymName>Petten</toponymName>
<name>Petten</name>
<lat>53.01667</lat>
<lng>4.76667</lng>
<geonameId>2748630</geonameId>
<countryCode>NL</countryCode>
<countryName>Netherlands</countryName>
<fcl>L</fcl>
<fcode>RESN</fcode>
</geoname>
<geoname>
<toponymName>Pieter Rozenvlak</toponymName>
<name>Pieter Rozenvlak</name>
<lat>53.03655</lat>
<lng>4.72853</lng>
<geonameId>2748599</geonameId>
<countryCode>NL</countryCode>
<countryName>Netherlands</countryName>
<fcl>T</fcl>
<fcode>DUNE</fcode>
</geoname>
<geoname>
<toponymName>Polder Eijerland</toponymName>
<name>Polder Eijerland</name>
<lat>53.12304</lat>
<lng>4.8336</lng>
<geonameId>2756287</geonameId>
<countryCode>NL</countryCode>
<countryName>Netherlands</countryName>
<fcl>T</fcl>
<fcode>PLDR</fcode>
</geoname>
<geoname>
<toponymName>Polder Waal en Burg</toponymName>
<name>Polder Waal en Burg</name>
<lat>53.08613</lat>
<lng>4.80619</lng>
<geonameId>2745129</geonameId>
<countryCode>NL</countryCode>
<countryName>Netherlands</countryName>
<fcl>T</fcl>
<fcode>PLDR</fcode>
</geoname>
<geoname>
<toponymName>Polder de Eendracht</toponymName>
<name>Polder de Eendracht</name>
<lat>53.1375</lat>
<lng>4.8931</lng>
<geonameId>2756374</geonameId>
<countryCode>NL</countryCode>
<countryName>Netherlands</countryName>
<fcl>T</fcl>
<fcode>PLDR</fcode>
</geoname>
<geoname>
<toponymName>Polder het Noorden</toponymName>
<name>Polder het Noorden</name>
<lat>53.11241</lat>
<lng>4.88398</lng>
<geonameId>2749963</geonameId>
<countryCode>NL</countryCode>
<countryName>Netherlands</countryName>
<fcl>T</fcl>
<fcode>PLDR</fcode>
</geoname>
<geoname>
<toponymName>Pompevlak</toponymName>
<name>Pompevlak</name>
<lat>53.01667</lat>
<lng>4.71667</lng>
<geonameId>2748508</geonameId>
<countryCode>NL</countryCode>
<countryName>Netherlands</countryName>
<fcl>L</fcl>
<fcode>LCTY</fcode>
</geoname>
<geoname>
<toponymName>Prins Hendrikpolder</toponymName>
<name>Prins Hendrikpolder</name>
<lat>53.01925</lat>
<lng>4.79136</lng>
<geonameId>2748433</geonameId>
<countryCode>NL</countryCode>
<countryName>Netherlands</countryName>
<fcl>T</fcl>
<fcode>PLDR</fcode>
</geoname>
<geoname>
<toponymName>Roggesloot</toponymName>
<name>Roggesloot</name>
<lat>53.15663</lat>
<lng>4.87688</lng>
<geonameId>2747985</geonameId>
<countryCode>NL</countryCode>
<countryName>Netherlands</countryName>
<fcl>H</fcl>
<fcode>CRKT</fcode>
</geoname>
<geoname>
<toponymName>Schilbolsnol</toponymName>
<name>Schilbolsnol</name>
<lat>53.0079</lat>
<lng>4.77036</lng>
<geonameId>2747578</geonameId>
<countryCode>NL</countryCode>
<countryName>Netherlands</countryName>
<fcl>T</fcl>
<fcode>DUNE</fcode>
</geoname>
<geoname>
<toponymName>Siborsnollen</toponymName>
<name>Siborsnollen</name>
<lat>53.01885</lat>
<lng>4.74346</lng>
<geonameId>2747344</geonameId>
<countryCode>NL</countryCode>
<countryName>Netherlands</countryName>
<fcl>T</fcl>
<fcode>DUNE</fcode>
</geoname>
<geoname>
<toponymName>Slufterbollen</toponymName>
<name>Slufterbollen</name>
<lat>53.12923</lat>
<lng>4.79832</lng>
<geonameId>2747120</geonameId>
<countryCode>NL</countryCode>
<countryName>Netherlands</countryName>
<fcl>T</fcl>
<fcode>DUNE</fcode>
</geoname>
<geoname>
<toponymName>Sluftervallei</toponymName>
<name>Sluftervallei</name>
<lat>53.15</lat>
<lng>4.85</lng>
<geonameId>2747119</geonameId>
<countryCode>NL</countryCode>
<countryName>Netherlands</countryName>
<fcl>L</fcl>
<fcode>LCTY</fcode>
</geoname>
<geoname>
<toponymName>Smidsbollen</toponymName>
<name>Smidsbollen</name>
<lat>53.03333</lat>
<lng>4.71667</lng>
<geonameId>2747081</geonameId>
<countryCode>NL</countryCode>
<countryName>Netherlands</countryName>
<fcl>T</fcl>
<fcode>DUNE</fcode>
</geoname>
<geoname>
<toponymName>Spang</toponymName>
<name>Spang</name>
<lat>53.0725</lat>
<lng>4.85</lng>
<geonameId>2746977</geonameId>
<countryCode>NL</countryCode>
<countryName>Netherlands</countryName>
<fcl>P</fcl>
<fcode>PPL</fcode>
</geoname>
<geoname>
<toponymName>Spijkdorp</toponymName>
<name>Spijkdorp</name>
<lat>53.07417</lat>
<lng>4.85694</lng>
<geonameId>2746933</geonameId>
<countryCode>NL</countryCode>
<countryName>Netherlands</countryName>
<fcl>P</fcl>
<fcode>PPL</fcode>
</geoname>
<geoname>
<toponymName>Texel</toponymName>
<name>Texel</name>
<lat>53.08333</lat>
<lng>4.83333</lng>
<geonameId>2746385</geonameId>
<countryCode>NL</countryCode>
<countryName>Netherlands</countryName>
<fcl>T</fcl>
<fcode>ISL</fcode>
</geoname>
<geoname>
<toponymName>Texel International Airport</toponymName>
<name>Texel International Airport</name>
<lat>53.11731</lat>
<lng>4.8266</lng>
<geonameId>8555930</geonameId>
<countryCode>NL</countryCode>
<countryName>Netherlands</countryName>
<fcl>S</fcl>
<fcode>AIRP</fcode>
</geoname>
<geoname>
<toponymName>Tienhoven</toponymName>
<name>Tienhoven</name>
<lat>53.06705</lat>
<lng>4.81274</lng>
<geonameId>2746319</geonameId>
<countryCode>NL</countryCode>
<countryName>Netherlands</countryName>
<fcl>P</fcl>
<fcode>PPL</fcode>
</geoname>
<geoname>
<toponymName>Troelje</toponymName>
<name>Troelje</name>
<lat>53.05</lat>
<lng>4.85</lng>
<geonameId>2746149</geonameId>
<countryCode>NL</countryCode>
<countryName>Netherlands</countryName>
<fcl>L</fcl>
<fcode>RESN</fcode>
</geoname>
<geoname>
<toponymName>Westergeest</toponymName>
<name>Westergeest</name>
<lat>53.03538</lat>
<lng>4.81789</lng>
<geonameId>2744745</geonameId>
<countryCode>NL</countryCode>
<countryName>Netherlands</countryName>
<fcl>P</fcl>
<fcode>PPL</fcode>
</geoname>
<geoname>
<toponymName>Westerkolk</toponymName>
<name>Westerkolk</name>
<lat>53.08944</lat>
<lng>4.82481</lng>
<geonameId>2744722</geonameId>
<countryCode>NL</countryCode>
<countryName>Netherlands</countryName>
<fcl>L</fcl>
<fcode>RESN</fcode>
</geoname>
<geoname>
<toponymName>Westermient</toponymName>
<name>Westermient</name>
<lat>53.05917</lat>
<lng>4.76389</lng>
<geonameId>2744708</geonameId>
<countryCode>NL</countryCode>
<countryName>Netherlands</countryName>
<fcl>P</fcl>
<fcode>PPL</fcode>
</geoname>
<geoname>
<toponymName>Zevenhuizen</toponymName>
<name>Zevenhuizen</name>
<lat>53.0875</lat>
<lng>4.88333</lng>
<geonameId>2743927</geonameId>
<countryCode>NL</countryCode>
<countryName>Netherlands</countryName>
<fcl>P</fcl>
<fcode>PPL</fcode>
</geoname>
<geoname>
<toponymName>Zuid-Eierland</toponymName>
<name>Zuid-Eierland</name>
<lat>53.1125</lat>
<lng>4.81944</lng>
<geonameId>2743792</geonameId>
<countryCode>NL</countryCode>
<countryName>Netherlands</countryName>
<fcl>P</fcl>
<fcode>PPL</fcode>
</geoname>
<geoname>
<toponymName>Zuidhaffel</toponymName>
<name>Zuidhaffel</name>
<lat>53.03768</lat>
<lng>4.80515</lng>
<geonameId>2743708</geonameId>
<countryCode>NL</countryCode>
<countryName>Netherlands</countryName>
<fcl>P</fcl>
<fcode>PPL</fcode>
</geoname>
<geoname>
<toponymName>t Horntje</toponymName>
<name>t Horntje</name>
<lat>53.005</lat>
<lng>4.78472</lng>
<geonameId>2746338</geonameId>
<countryCode>NL</countryCode>
<countryName>Netherlands</countryName>
<fcl>P</fcl>
<fcode>PPL</fcode>
</geoname>
</geonames>