{
  "geonames" : [
    {
      "countryId" : "2750405" ,
      "adminCode1" : "07" ,
      "countryName" : "Netherlands" ,
      "fclName" : "city, village,..." ,
      "countryCode" : "NL" ,
      "lng" : "4.83472" ,
      "fcodeName" : "populated place" ,
      "toponymName" : "Bargen" ,
      "fcl" : "P" ,
      "name" : "Bargen" ,
      "fcode" : "PPL" ,
      "geonameId" : 2759422 ,
      "lat" : "53.08417" ,
      "adminName1" : "North Holland" ,
      "population" : 0
    } , {
      "countryId" : "2750405" ,
      "adminCode1" : "07" ,
      "countryName" : "Netherlands" ,
      "fclName" : "spot, building, farm" ,
      "countryCode" : "NL" ,
      "lng" : "4.85" ,
      "fcodeName" : "farm" ,
      "toponymName" : "Bartimeus Hoeve" ,
      "fcl" : "S" ,
      "name" : "Bartimeus Hoeve" ,
      "fcode" : "FRM" ,
      "geonameId" : 2759393 ,
      "lat" : "53.08333" ,
      "adminName1" : "North Holland" ,
      "population" : 0
    } , {
      "countryId" : "2750405" ,
      "adminCode1" : "07" ,
      "countryName" : "Netherlands" ,
      "fclName" : "parks,area, ..." ,
      "countryCode" : "NL" ,
      "lng" : "4.73448" ,
      "fcodeName" : "park" ,
      "toponymName" : "Bleekersvallei" ,
      "fcl" : "L" ,
      "name" : "Bleekersvallei" ,
      "fcode" : "PRK" ,
      "geonameId" : 2758843 ,
      "lat" : "53.0671" ,
      "adminName1" : "North Holland" ,
      "population" : 0
    } , {
      "countryId" : "2750405" ,
      "adminCode1" : "07" ,
      "countryName" : "Netherlands" ,
      "fclName" : "stream, lake, ..." ,
      "countryCode" : "NL" ,
      "lng" : "4.79944" ,
      "fcodeName" : "marsh(es)" ,
      "toponymName" : "Blok" ,
      "fcl" : "H" ,
      "name" : "Blok" ,
      "fcode" : "MRSH" ,
      "geonameId" : 2758792 ,
      "lat" : "53.06611" ,
      "adminName1" : "North Holland" ,
      "population" : 0
    } , {
      "countryId" : "2750405" ,
      "adminCode1" : "07" ,
      "countryName" : "Netherlands" ,
      "fclName" : "parks,area, ..." ,
      "countryCode" : "NL" ,
      "lng" : "4.76577" ,
      "fcodeName" : "locality" ,
      "toponymName" : "Buitendijk" ,
      "fcl" : "L" ,
      "name" : "Buitendijk" ,
      "fcode" : "LCTY" ,
      "geonameId" : 2758148 ,
      "lat" : "53.02276" ,
      "adminName1" : "North Holland" ,
      "population" : 0
    } , {
      "countryId" : "2750405" ,
      "adminCode1" : "07" ,
      "countryName" : "Netherlands" ,
      "fclName" : "mountain,hill,rock,... " ,
      "countryCode" : "NL" ,
      "lng" : "4.78536" ,
      "fcodeName" : "polder" ,
      "toponymName" : "Burgernieuwland" ,
      "fcl" : "T" ,
      "name" : "Burgernieuwland" ,
      "fcode" : "PLDR" ,
      "geonameId" : 2758087 ,
      "lat" : "53.0736" ,
      "adminName1" : "North Holland" ,
      "population" : 0
    } , {
      "countryId" : "2750405" ,
      "adminCode1" : "07" ,
      "countryName" : "Netherlands" ,
      "fclName" : "city, village,..." ,
      "countryCode" : "NL" ,
      "lng" : "4.87083" ,
      "fcodeName" : "populated place" ,
      "toponymName" : "De Cocksdorp" ,
      "fcl" : "P" ,
      "name" : "De Cocksdorp" ,
      "fcode" : "PPL" ,
      "geonameId" : 2757710 ,
      "lat" : "53.15667" ,
      "adminName1" : "North Holland" ,
      "population" : 0
    } , {
      "countryId" : "2750405" ,
      "adminCode1" : "07" ,
      "countryName" : "Netherlands" ,
      "fclName" : "parks,area, ..." ,
      "countryCode" : "NL" ,
      "lng" : "4.73689" ,
      "fcodeName" : "nature reserve" ,
      "toponymName" : "De Geul" ,
      "fcl" : "L" ,
      "name" : "De Geul" ,
      "fcode" : "RESN" ,
      "geonameId" : 2757629 ,
      "lat" : "53.0091" ,
      "adminName1" : "North Holland" ,
      "population" : 0
    } , {
      "countryId" : "2750405" ,
      "adminCode1" : "07" ,
      "countryName" : "Netherlands" ,
      "fclName" : "mountain,hill,rock,... " ,
      "countryCode" : "NL" ,
      "lng" : "4.76082" ,
      "fcodeName" : "polder" ,
      "toponymName" : "De Hemmer" ,
      "fcl" : "T" ,
      "name" : "De Hemmer" ,
      "fcode" : "PLDR" ,
      "geonameId" : 2757553 ,
      "lat" : "53.03623" ,
      "adminName1" : "North Holland" ,
      "population" : 0
    } , {
      "countryId" : "2750405" ,
      "adminCode1" : "07" ,
      "countryName" : "Netherlands" ,
      "fclName" : "parks,area, ..." ,
      "countryCode" : "NL" ,
      "lng" : "4.73183" ,
      "fcodeName" : "locality" ,
      "toponymName" : "De Hors" ,
      "fcl" : "L" ,
      "name" : "De Hors" ,
      "fcode" : "LCTY" ,
      "geonameId" : 2757495 ,
      "lat" : "52.99716" ,
      "adminName1" : "North Holland" ,
      "population" : 0
    } , {
      "countryId" : "2750405" ,
      "adminCode1" : "07" ,
      "countryName" : "Netherlands" ,
      "fclName" : "spot, building, farm" ,
      "countryCode" : "NL" ,
      "lng" : "4.79765" ,
      "fcodeName" : "windmill" ,
      "toponymName" : "De Kemphaan" ,
      "fcl" : "S" ,
      "name" : "De Kemphaan" ,
      "fcode" : "MLWND" ,
      "geonameId" : 6950005 ,
      "lat" : "53.08121" ,
      "adminName1" : "North Holland" ,
      "population" : 0
    } , {
      "countryId" : "2750405" ,
      "adminCode1" : "07" ,
      "countryName" : "Netherlands" ,
      "fclName" : "city, village,..." ,
      "countryCode" : "NL" ,
      "lng" : "4.76111" ,
      "fcodeName" : "populated place" ,
      "toponymName" : "De Koog" ,
      "fcl" : "P" ,
      "name" : "De Koog" ,
      "fcode" : "PPL" ,
      "geonameId" : 2757417 ,
      "lat" : "53.0975" ,
      "adminName1" : "North Holland" ,
      "population" : 0
    } , {
      "countryId" : "2750405" ,
      "adminCode1" : "07" ,
      "countryName" : "Netherlands" ,
      "fclName" : "spot, building, farm" ,
      "countryCode" : "NL" ,
      "lng" : "4.85361" ,
      "fcodeName" : "estate(s)" ,
      "toponymName" : "De Krim" ,
      "fcl" : "S" ,
      "name" : "De Krim" ,
      "fcode" : "EST" ,
      "geonameId" : 2757398 ,
      "lat" : "53.15172" ,
      "adminName1" : "North Holland" ,
      "population" : 0
    } , {
      "countryId" : "2750405" ,
      "adminCode1" : "07" ,
      "countryName" : "Netherlands" ,
      "fclName" : "stream, lake, ..." ,
      "countryCode" : "NL" ,
      "lng" : "4.85762" ,
      "fcodeName" : "marsh(es)" ,
      "toponymName" : "De Leemput" ,
      "fcl" : "H" ,
      "name" : "De Leemput" ,
      "fcode" : "MRSH" ,
      "geonameId" : 2757363 ,
      "lat" : "53.05757" ,
      "adminName1" : "North Holland" ,
      "population" : 0
    } , {
      "countryId" : "2750405" ,
      "adminCode1" : "07" ,
      "countryName" : "Netherlands" ,
      "fclName" : "parks,area, ..." ,
      "countryCode" : "NL" ,
      "lng" : "4.8151" ,
      "fcodeName" : "locality" ,
      "toponymName" : "De Mars" ,
      "fcl" : "L" ,
      "name" : "De Mars" ,
      "fcode" : "LCTY" ,
      "geonameId" : 2757308 ,
      "lat" : "53.06285" ,
      "adminName1" : "North Holland" ,
      "population" : 0
    } , {
      "countryId" : "2750405" ,
      "adminCode1" : "07" ,
      "countryName" : "Netherlands" ,
      "fclName" : "parks,area, ..." ,
      "countryCode" : "NL" ,
      "lng" : "4.77897" ,
      "fcodeName" : "nature reserve" ,
      "toponymName" : "De Muy" ,
      "fcl" : "L" ,
      "name" : "De Muy" ,
      "fcode" : "RESN" ,
      "geonameId" : 2757263 ,
      "lat" : "53.11624" ,
      "adminName1" : "North Holland" ,
      "population" : 0
    } , {
      "countryId" : "2750405" ,
      "adminCode1" : "07" ,
      "countryName" : "Netherlands" ,
      "fclName" : "parks,area, ..." ,
      "countryCode" : "NL" ,
      "lng" : "4.74283" ,
      "fcodeName" : "locality" ,
      "toponymName" : "De Naal" ,
      "fcl" : "L" ,
      "name" : "De Naal" ,
      "fcode" : "LCTY" ,
      "geonameId" : 2757262 ,
      "lat" : "53.02393" ,
      "adminName1" : "North Holland" ,
      "population" : 0
    } , {
      "countryId" : "2750405" ,
      "adminCode1" : "07" ,
      "countryName" : "Netherlands" ,
      "fclName" : "mountain,hill,rock,... " ,
      "countryCode" : "NL" ,
      "lng" : "4.78242" ,
      "fcodeName" : "dune(s)" ,
      "toponymName" : "De Nederlanden" ,
      "fcl" : "T" ,
      "name" : "De Nederlanden" ,
      "fcode" : "DUNE" ,
      "geonameId" : 2757235 ,
      "lat" : "53.11046" ,
      "adminName1" : "North Holland" ,
      "population" : 0
    } , {
      "countryId" : "2750405" ,
      "adminCode1" : "07" ,
      "countryName" : "Netherlands" ,
      "fclName" : "city, village,..." ,
      "countryCode" : "NL" ,
      "lng" : "4.86111" ,
      "fcodeName" : "populated place" ,
      "toponymName" : "De Nes" ,
      "fcl" : "P" ,
      "name" : "De Nes" ,
      "fcode" : "PPL" ,
      "geonameId" : 2757227 ,
      "lat" : "53.08083" ,
      "adminName1" : "North Holland" ,
      "population" : 0
    } , {
      "countryId" : "2750405" ,
      "adminCode1" : "07" ,
      "countryName" : "Netherlands" ,
      "fclName" : "parks,area, ..." ,
      "countryCode" : "NL" ,
      "lng" : "4.9045" ,
      "fcodeName" : "nature reserve" ,
      "toponymName" : "De Schorren" ,
      "fcl" : "L" ,
      "name" : "De Schorren" ,
      "fcode" : "RESN" ,
      "geonameId" : 2757060 ,
      "lat" : "53.13447" ,
      "adminName1" : "North Holland" ,
      "population" : 0
    } , {
      "countryId" : "2750405" ,
      "adminCode1" : "07" ,
      "countryName" : "Netherlands" ,
      "fclName" : "parks,area, ..." ,
      "countryCode" : "NL" ,
      "lng" : "4.82156" ,
      "fcodeName" : "nature reserve" ,
      "toponymName" : "De Slufter" ,
      "fcl" : "L" ,
      "name" : "De Slufter" ,
      "fcode" : "RESN" ,
      "geonameId" : 2757053 ,
      "lat" : "53.14476" ,
      "adminName1" : "North Holland" ,
      "population" : 0
    } , {
      "countryId" : "2750405" ,
      "adminCode1" : "07" ,
      "countryName" : "Netherlands" ,
      "fclName" : "parks,area, ..." ,
      "countryCode" : "NL" ,
      "lng" : "4.85" ,
      "fcodeName" : "nature reserve" ,
      "toponymName" : "De Snippen" ,
      "fcl" : "L" ,
      "name" : "De Snippen" ,
      "fcode" : "RESN" ,
      "geonameId" : 2757050 ,
      "lat" : "53.05" ,
      "adminName1" : "North Holland" ,
      "population" : 0
    } , {
      "countryId" : "2750405" ,
      "adminCode1" : "07" ,
      "countryName" : "Netherlands" ,
      "fclName" : "spot, building, farm" ,
      "countryCode" : "NL" ,
      "lng" : "4.84843" ,
      "fcodeName" : "windmill" ,
      "toponymName" : "De Traanroeier" ,
      "fcl" : "S" ,
      "name" : "De Traanroeier" ,
      "fcode" : "MLWND" ,
      "geonameId" : 6950072 ,
      "lat" : "53.0386" ,
      "adminName1" : "North Holland" ,
      "population" : 0
    } , {
      "countryId" : "2750405" ,
      "adminCode1" : "07" ,
      "countryName" : "Netherlands" ,
      "fclName" : "city, village,..." ,
      "countryCode" : "NL" ,
      "lng" : "4.82361" ,
      "fcodeName" : "populated place" ,
      "toponymName" : "De Waal" ,
      "fcl" : "P" ,
      "name" : "De Waal" ,
      "fcode" : "PPL" ,
      "geonameId" : 2756962 ,
      "lat" : "53.0725" ,
      "adminName1" : "North Holland" ,
      "population" : 0
    } , {
      "countryId" : "2750405" ,
      "adminCode1" : "07" ,
      "countryName" : "Netherlands" ,
      "fclName" : "city, village,..." ,
      "countryCode" : "NL" ,
      "lng" : "4.75556" ,
      "fcodeName" : "populated place" ,
      "toponymName" : "De Westen" ,
      "fcl" : "P" ,
      "name" : "De Westen" ,
      "fcode" : "PPL" ,
      "geonameId" : 2756944 ,
      "lat" : "53.04667" ,
      "adminName1" : "North Holland" ,
      "population" : 0
    } , {
      "countryId" : "2750405" ,
      "adminCode1" : "07" ,
      "countryName" : "Netherlands" ,
      "fclName" : "parks,area, ..." ,
      "countryCode" : "NL" ,
      "lng" : "4.86667" ,
      "fcodeName" : "nature reserve" ,
      "toponymName" : "De Zandkes" ,
      "fcl" : "L" ,
      "name" : "De Zandkes" ,
      "fcode" : "RESN" ,
      "geonameId" : 2756917 ,
      "lat" : "53.06667" ,
      "adminName1" : "North Holland" ,
      "population" : 0
    } , {
      "countryId" : "2750405" ,
      "adminCode1" : "07" ,
      "countryName" : "Netherlands" ,
      "fclName" : "city, village,..." ,
      "countryCode" : "NL" ,
      "lng" : "4.79722" ,
      "fcodeName" : "populated place" ,
      "toponymName" : "Den Burg" ,
      "fcl" : "P" ,
      "name" : "Den Burg" ,
      "fcode" : "PPL" ,
      "geonameId" : 2757244 ,
      "lat" : "53.05417" ,
      "adminName1" : "North Holland" ,
      "population" : 6160
    } , {
      "countryId" : "2750405" ,
      "adminCode1" : "07" ,
      "countryName" : "Netherlands" ,
      "fclName" : "city, village,..." ,
      "countryCode" : "NL" ,
      "lng" : "4.75139" ,
      "fcodeName" : "populated place" ,
      "toponymName" : "Den Hoorn" ,
      "fcl" : "P" ,
      "name" : "Den Hoorn" ,
      "fcode" : "PPL" ,
      "geonameId" : 2757213 ,
      "lat" : "53.025" ,
      "adminName1" : "North Holland" ,
      "population" : 0
    } , {
      "countryId" : "2750405" ,
      "adminCode1" : "07" ,
      "countryName" : "Netherlands" ,
      "fclName" : "parks,area, ..." ,
      "countryCode" : "NL" ,
      "lng" : "4.85" ,
      "fcodeName" : "nature reserve" ,
      "toponymName" : "Dijkmanshuizen" ,
      "fcl" : "L" ,
      "name" : "Dijkmanshuizen" ,
      "fcode" : "RESN" ,
      "geonameId" : 2756831 ,
      "lat" : "53.06667" ,
      "adminName1" : "North Holland" ,
      "population" : 0
    } , {
      "countryId" : "2750405" ,
      "adminCode1" : "07" ,
      "countryName" : "Netherlands" ,
      "fclName" : "city, village,..." ,
      "countryCode" : "NL" ,
      "lng" : "4.8625" ,
      "fcodeName" : "populated place" ,
      "toponymName" : "Dijkmanshuizen" ,
      "fcl" : "P" ,
      "name" : "Dijkmanshuizen" ,
      "fcode" : "PPL" ,
      "geonameId" : 2756832 ,
      "lat" : "53.05417" ,
      "adminName1" : "North Holland" ,
      "population" : 0
    } , {
      "countryId" : "2750405" ,
      "adminCode1" : "07" ,
      "countryName" : "Netherlands" ,
      "fclName" : "city, village,..." ,
      "countryCode" : "NL" ,
      "lng" : "4.77639" ,
      "fcodeName" : "populated place" ,
      "toponymName" : "Driehuizen" ,
      "fcl" : "P" ,
      "name" : "Driehuizen" ,
      "fcode" : "PPL" ,
      "geonameId" : 2756593 ,
      "lat" : "53.04667" ,
      "adminName1" : "North Holland" ,
      "population" : 0
    } , {
      "countryId" : "2750405" ,
      "adminCode1" : "07" ,
      "countryName" : "Netherlands" ,
      "fclName" : "parks,area, ..." ,
      "countryCode" : "NL" ,
      "lng" : "4.73902" ,
      "fcodeName" : "park" ,
      "toponymName" : "Duinpark" ,
      "fcl" : "L" ,
      "name" : "Duinpark" ,
      "fcode" : "PRK" ,
      "geonameId" : 2756517 ,
      "lat" : "53.07453" ,
      "adminName1" : "North Holland" ,
      "population" : 0
    } , {
      "countryId" : "2750405" ,
      "adminCode1" : "07" ,
      "countryName" : "Netherlands" ,
      "fclName" : "mountain,hill,rock,... " ,
      "countryCode" : "NL" ,
      "lng" : "4.83969" ,
      "fcodeName" : "dune(s)" ,
      "toponymName" : "Eierlandse Duinen" ,
      "fcl" : "T" ,
      "name" : "Eierlandse Duinen" ,
      "fcode" : "DUNE" ,
      "geonameId" : 2756290 ,
      "lat" : "53.16936" ,
      "adminName1" : "North Holland" ,
      "population" : 0
    } , {
      "countryId" : "2750405" ,
      "adminCode1" : "07" ,
      "countryName" : "Netherlands" ,
      "fclName" : "parks,area, ..." ,
      "countryCode" : "NL" ,
      "lng" : "4.77764" ,
      "fcodeName" : "locality" ,
      "toponymName" : "Everstekoog" ,
      "fcl" : "L" ,
      "name" : "Everstekoog" ,
      "fcode" : "LCTY" ,
      "geonameId" : 2755963 ,
      "lat" : "53.08211" ,
      "adminName1" : "North Holland" ,
      "population" : 0
    } , {
      "countryId" : "2750405" ,
      "adminCode1" : "07" ,
      "countryName" : "Netherlands" ,
      "fclName" : "parks,area, ..." ,
      "countryCode" : "NL" ,
      "lng" : "4.73333" ,
      "fcodeName" : "park" ,
      "toponymName" : "Fonteinsnol" ,
      "fcl" : "L" ,
      "name" : "Fonteinsnol" ,
      "fcode" : "PRK" ,
      "geonameId" : 2755864 ,
      "lat" : "53.05" ,
      "adminName1" : "North Holland" ,
      "population" : 0
    } , {
      "countryId" : "2750405" ,
      "adminCode1" : "07" ,
      "countryName" : "Netherlands" ,
      "fclName" : "country, state, region,..." ,
      "countryCode" : "NL" ,
      "lng" : "4.81166" ,
      "fcodeName" : "second-order administrative division" ,
      "toponymName" : "Gemeente Texel" ,
      "fcl" : "A" ,
      "name" : "Gemeente Texel" ,
      "fcode" : "ADM2" ,
      "geonameId" : 2746383 ,
      "lat" : "53.07883" ,
      "adminName1" : "North Holland" ,
      "population" : 13779
    } , {
      "countryId" : "2750405" ,
      "adminCode1" : "07" ,
      "countryName" : "Netherlands" ,
      "fclName" : "mountain,hill,rock,... " ,
      "countryCode" : "NL" ,
      "lng" : "4.76754" ,
      "fcodeName" : "polder" ,
      "toponymName" : "Gerritsland" ,
      "fcl" : "T" ,
      "name" : "Gerritsland" ,
      "fcode" : "PLDR" ,
      "geonameId" : 2755570 ,
      "lat" : "53.06503" ,
      "adminName1" : "North Holland" ,
      "population" : 0
    } , {
      "countryId" : "2750405" ,
      "adminCode1" : "07" ,
      "countryName" : "Netherlands" ,
      "fclName" : "mountain,hill,rock,... " ,
      "countryCode" : "NL" ,
      "lng" : "4.71828" ,
      "fcodeName" : "dune(s)" ,
      "toponymName" : "Grote Vlak" ,
      "fcl" : "T" ,
      "name" : "Grote Vlak" ,
      "fcode" : "DUNE" ,
      "geonameId" : 2755060 ,
      "lat" : "53.02645" ,
      "adminName1" : "North Holland" ,
      "population" : 0
    } , {
      "countryId" : "2750405" ,
      "adminCode1" : "07" ,
      "countryName" : "Netherlands" ,
      "fclName" : "spot, building, farm" ,
      "countryCode" : "NL" ,
      "lng" : "4.7593" ,
      "fcodeName" : "hotel" ,
      "toponymName" : "Hampshire Classic Opduin" ,
      "fcl" : "S" ,
      "name" : "Hampshire Classic Opduin" ,
      "fcode" : "HTL" ,
      "geonameId" : 6522984 ,
      "lat" : "53.098" ,
      "adminName1" : "North Holland" ,
      "population" : 0
    } , {
      "countryId" : "2750405" ,
      "adminCode1" : "07" ,
      "countryName" : "Netherlands" ,
      "fclName" : "parks,area, ..." ,
      "countryCode" : "NL" ,
      "lng" : "4.85" ,
      "fcodeName" : "locality" ,
      "toponymName" : "Hanenplas" ,
      "fcl" : "L" ,
      "name" : "Hanenplas" ,
      "fcode" : "LCTY" ,
      "geonameId" : 2754892 ,
      "lat" : "53.15" ,
      "adminName1" : "North Holland" ,
      "population" : 0
    } , {
      "countryId" : "2750405" ,
      "adminCode1" : "07" ,
      "countryName" : "Netherlands" ,
      "fclName" : "city, village,..." ,
      "countryCode" : "NL" ,
      "lng" : "4.8625" ,
      "fcodeName" : "populated place" ,
      "toponymName" : "Harkebuurt" ,
      "fcl" : "P" ,
      "name" : "Harkebuurt" ,
      "fcode" : "PPL" ,
      "geonameId" : 2754822 ,
      "lat" : "53.08667" ,
      "adminName1" : "North Holland" ,
      "population" : 0
    } , {
      "countryId" : "2750405" ,
      "adminCode1" : "07" ,
      "countryName" : "Netherlands" ,
      "fclName" : "spot, building, farm" ,
      "countryCode" : "NL" ,
      "lng" : "4.89556" ,
      "fcodeName" : "windmill" ,
      "toponymName" : "Het Noorden" ,
      "fcl" : "S" ,
      "name" : "Het Noorden" ,
      "fcode" : "MLWND" ,
      "geonameId" : 6950033 ,
      "lat" : "53.10306" ,
      "adminName1" : "North Holland" ,
      "population" : 0
    } , {
      "countryId" : "2750405" ,
      "adminCode1" : "07" ,
      "countryName" : "Netherlands" ,
      "fclName" : "parks,area, ..." ,
      "countryCode" : "NL" ,
      "lng" : "4.81667" ,
      "fcodeName" : "nature reserve" ,
      "toponymName" : "Hooge Berg" ,
      "fcl" : "L" ,
      "name" : "Hooge Berg" ,
      "fcode" : "RESN" ,
      "geonameId" : 2753774 ,
      "lat" : "53.03333" ,
      "adminName1" : "North Holland" ,
      "population" : 0
    } , {
      "countryId" : "2750405" ,
      "adminCode1" : "07" ,
      "countryName" : "Netherlands" ,
      "fclName" : "city, village,..." ,
      "countryCode" : "NL" ,
      "lng" : "4.8172" ,
      "fcodeName" : "populated place" ,
      "toponymName" : "Hoogeberg" ,
      "fcl" : "P" ,
      "name" : "Hoogeberg" ,
      "fcode" : "PPL" ,
      "geonameId" : 2753775 ,
      "lat" : "53.04362" ,
      "adminName1" : "North Holland" ,
      "population" : 0
    } , {
      "countryId" : "2750405" ,
      "adminCode1" : "07" ,
      "countryName" : "Netherlands" ,
      "fclName" : "stream, lake, ..." ,
      "countryCode" : "NL" ,
      "lng" : "4.83768" ,
      "fcodeName" : "canal" ,
      "toponymName" : "Hoogezandskil" ,
      "fcl" : "H" ,
      "name" : "Hoogezandskil" ,
      "fcode" : "CNL" ,
      "geonameId" : 2753702 ,
      "lat" : "53.12549" ,
      "adminName1" : "North Holland" ,
      "population" : 0
    } , {
      "countryId" : "2750405" ,
      "adminCode1" : "07" ,
      "countryName" : "Netherlands" ,
      "fclName" : "parks,area, ..." ,
      "countryCode" : "NL" ,
      "lng" : "4.76276" ,
      "fcodeName" : "locality" ,
      "toponymName" : "Hoornder Nieuwland" ,
      "fcl" : "L" ,
      "name" : "Hoornder Nieuwland" ,
      "fcode" : "LCTY" ,
      "geonameId" : 2753631 ,
      "lat" : "53.01409" ,
      "adminName1" : "North Holland" ,
      "population" : 0
    } , {
      "countryId" : "2750405" ,
      "adminCode1" : "07" ,
      "countryName" : "Netherlands" ,
      "fclName" : "spot, building, farm" ,
      "countryCode" : "NL" ,
      "lng" : "4.7627" ,
      "fcodeName" : "hotel" ,
      "toponymName" : "Hotel Cooghen" ,
      "fcl" : "S" ,
      "name" : "Hotel Cooghen" ,
      "fcode" : "HTL" ,
      "geonameId" : 6491257 ,
      "lat" : "53.0998" ,
      "adminName1" : "North Holland" ,
      "population" : 0
    } , {
      "countryId" : "2750405" ,
      "adminCode1" : "07" ,
      "countryName" : "Netherlands" ,
      "fclName" : "stream, lake, ..." ,
      "countryCode" : "NL" ,
      "lng" : "4.80193" ,
      "fcodeName" : "canal" ,
      "toponymName" : "Jan Aysloot" ,
      "fcl" : "H" ,
      "name" : "Jan Aysloot" ,
      "fcode" : "CNL" ,
      "geonameId" : 2753279 ,
      "lat" : "53.06714" ,
      "adminName1" : "North Holland" ,
      "population" : 0
    } , {
      "countryId" : "2750405" ,
      "adminCode1" : "07" ,
      "countryName" : "Netherlands" ,
      "fclName" : "parks,area, ..." ,
      "countryCode" : "NL" ,
      "lng" : "4.73333" ,
      "fcodeName" : "park" ,
      "toponymName" : "Kampeersnol" ,
      "fcl" : "L" ,
      "name" : "Kampeersnol" ,
      "fcode" : "PRK" ,
      "geonameId" : 2753108 ,
      "lat" : "53.05" ,
      "adminName1" : "North Holland" ,
      "population" : 0
    } , {
      "countryId" : "2750405" ,
      "adminCode1" : "07" ,
      "countryName" : "Netherlands" ,
      "fclName" : "parks,area, ..." ,
      "countryCode" : "NL" ,
      "lng" : "4.88914" ,
      "fcodeName" : "locality" ,
      "toponymName" : "Klein Zeeland" ,
      "fcl" : "L" ,
      "name" : "Klein Zeeland" ,
      "fcode" : "LCTY" ,
      "geonameId" : 2752662 ,
      "lat" : "53.11996" ,
      "adminName1" : "North Holland" ,
      "population" : 0
    } , {
      "countryId" : "2750405" ,
      "adminCode1" : "07" ,
      "countryName" : "Netherlands" ,
      "fclName" : "city, village,..." ,
      "countryCode" : "NL" ,
      "lng" : "4.78426" ,
      "fcodeName" : "populated place" ,
      "toponymName" : "Koogerveld" ,
      "fcl" : "P" ,
      "name" : "Koogerveld" ,
      "fcode" : "PPL" ,
      "geonameId" : 2752475 ,
      "lat" : "53.09997" ,
      "adminName1" : "North Holland" ,
      "population" : 0
    } , {
      "countryId" : "2750405" ,
      "adminCode1" : "07" ,
      "countryName" : "Netherlands" ,
      "fclName" : "parks,area, ..." ,
      "countryCode" : "NL" ,
      "lng" : "4.79338" ,
      "fcodeName" : "nature reserve" ,
      "toponymName" : "Korverskooi" ,
      "fcl" : "L" ,
      "name" : "Korverskooi" ,
      "fcode" : "RESN" ,
      "geonameId" : 2752388 ,
      "lat" : "53.10638" ,
      "adminName1" : "North Holland" ,
      "population" : 0
    } , {
      "countryId" : "2750405" ,
      "adminCode1" : "07" ,
      "countryName" : "Netherlands" ,
      "fclName" : "stream, lake, ..." ,
      "countryCode" : "NL" ,
      "lng" : "4.81939" ,
      "fcodeName" : "canal" ,
      "toponymName" : "Laagwaal" ,
      "fcl" : "H" ,
      "name" : "Laagwaal" ,
      "fcode" : "CNL" ,
      "geonameId" : 2752096 ,
      "lat" : "53.07095" ,
      "adminName1" : "North Holland" ,
      "population" : 0
    } , {
      "countryId" : "2750405" ,
      "adminCode1" : "07" ,
      "countryName" : "Netherlands" ,
      "fclName" : "stream, lake, ..." ,
      "countryCode" : "NL" ,
      "lng" : "4.75272" ,
      "fcodeName" : "tidal flat(s)" ,
      "toponymName" : "Laan" ,
      "fcl" : "H" ,
      "name" : "Laan" ,
      "fcode" : "FLTT" ,
      "geonameId" : 2752087 ,
      "lat" : "52.99194" ,
      "adminName1" : "North Holland" ,
      "population" : 0
    } , {
      "countryId" : "2750405" ,
      "adminCode1" : "07" ,
      "countryName" : "Netherlands" ,
      "fclName" : "mountain,hill,rock,... " ,
      "countryCode" : "NL" ,
      "lng" : "4.71667" ,
      "fcodeName" : "dune(s)" ,
      "toponymName" : "Loodsmansduin" ,
      "fcl" : "T" ,
      "name" : "Loodsmansduin" ,
      "fcode" : "DUNE" ,
      "geonameId" : 2751472 ,
      "lat" : "53.01667" ,
      "adminName1" : "North Holland" ,
      "population" : 0
    } , {
      "countryId" : "2750405" ,
      "adminCode1" : "07" ,
      "countryName" : "Netherlands" ,
      "fclName" : "city, village,..." ,
      "countryCode" : "NL" ,
      "lng" : "4.86111" ,
      "fcodeName" : "populated place" ,
      "toponymName" : "Midden-Eierland" ,
      "fcl" : "P" ,
      "name" : "Midden-Eierland" ,
      "fcode" : "PPL" ,
      "geonameId" : 2750856 ,
      "lat" : "53.12917" ,
      "adminName1" : "North Holland" ,
      "population" : 0
    } , {
      "countryId" : "2750405" ,
      "adminCode1" : "07" ,
      "countryName" : "Netherlands" ,
      "fclName" : "stream, lake, ..." ,
      "countryCode" : "NL" ,
      "lng" : "4.76506" ,
      "fcodeName" : "bay" ,
      "toponymName" : "Mok" ,
      "fcl" : "H" ,
      "name" : "Mok" ,
      "fcode" : "BAY" ,
      "geonameId" : 2750743 ,
      "lat" : "53.00368" ,
      "adminName1" : "North Holland" ,
      "population" : 0
    } , {
      "countryId" : "2750405" ,
      "adminCode1" : "07" ,
      "countryName" : "Netherlands" ,
      "fclName" : "stream, lake, ..." ,
      "countryCode" : "NL" ,
      "lng" : "4.72309" ,
      "fcodeName" : "canal" ,
      "toponymName" : "Moksloot" ,
      "fcl" : "H" ,
      "name" : "Moksloot" ,
      "fcode" : "CNL" ,
      "geonameId" : 2750740 ,
      "lat" : "53.01962" ,
      "adminName1" : "North Holland" ,
      "population" : 0
    } , {
      "countryId" : "2750405" ,
      "adminCode1" : "07" ,
      "countryName" : "Netherlands" ,
      "fclName" : "city, village,..." ,
      "countryCode" : "NL" ,
      "lng" : "4.84583" ,
      "fcodeName" : "populated place" ,
      "toponymName" : "Molenbuurt" ,
      "fcl" : "P" ,
      "name" : "Molenbuurt" ,
      "fcode" : "PPL" ,
      "geonameId" : 2750717 ,
      "lat" : "53.08083" ,
      "adminName1" : "North Holland" ,
      "population" : 0
    } , {
      "countryId" : "2750405" ,
      "adminCode1" : "07" ,
      "countryName" : "Netherlands" ,
      "fclName" : "stream, lake, ..." ,
      "countryCode" : "NL" ,
      "lng" : "4.80065" ,
      "fcodeName" : "canal" ,
      "toponymName" : "Molenkil" ,
      "fcl" : "H" ,
      "name" : "Molenkil" ,
      "fcode" : "CNL" ,
      "geonameId" : 2750686 ,
      "lat" : "53.08347" ,
      "adminName1" : "North Holland" ,
      "population" : 0
    } , {
      "countryId" : "2750405" ,
      "adminCode1" : "07" ,
      "countryName" : "Netherlands" ,
      "fclName" : "parks,area, ..." ,
      "countryCode" : "NL" ,
      "lng" : "4.8" ,
      "fcodeName" : "nature reserve" ,
      "toponymName" : "Molenkil" ,
      "fcl" : "L" ,
      "name" : "Molenkil" ,
      "fcode" : "RESN" ,
      "geonameId" : 2750685 ,
      "lat" : "53.08333" ,
      "adminName1" : "North Holland" ,
      "population" : 0
    } , {
      "countryId" : "2750405" ,
      "adminCode1" : "07" ,
      "countryName" : "Netherlands" ,
      "fclName" : "mountain,hill,rock,... " ,
      "countryCode" : "NL" ,
      "lng" : "4.75" ,
      "fcodeName" : "dune(s)" ,
      "toponymName" : "Neeltjesnol" ,
      "fcl" : "T" ,
      "name" : "Neeltjesnol" ,
      "fcode" : "DUNE" ,
      "geonameId" : 2750457 ,
      "lat" : "53" ,
      "adminName1" : "North Holland" ,
      "population" : 0
    } , {
      "countryId" : "2750405" ,
      "adminCode1" : "07" ,
      "countryName" : "Netherlands" ,
      "fclName" : "city, village,..." ,
      "countryCode" : "NL" ,
      "lng" : "4.8875" ,
      "fcodeName" : "populated place" ,
      "toponymName" : "Nieuweschild" ,
      "fcl" : "P" ,
      "name" : "Nieuweschild" ,
      "fcode" : "PPL" ,
      "geonameId" : 2750247 ,
      "lat" : "53.07417" ,
      "adminName1" : "North Holland" ,
      "population" : 0
    } , {
      "countryId" : "2750405" ,
      "adminCode1" : "07" ,
      "countryName" : "Netherlands" ,
      "fclName" : "city, village,..." ,
      "countryCode" : "NL" ,
      "lng" : "4.85556" ,
      "fcodeName" : "populated place" ,
      "toponymName" : "Noorderbuurt" ,
      "fcl" : "P" ,
      "name" : "Noorderbuurt" ,
      "fcode" : "PPL" ,
      "geonameId" : 2749953 ,
      "lat" : "53.08833" ,
      "adminName1" : "North Holland" ,
      "population" : 0
    } , {
      "countryId" : "2750405" ,
      "adminCode1" : "07" ,
      "countryName" : "Netherlands" ,
      "fclName" : "city, village,..." ,
      "countryCode" : "NL" ,
      "lng" : "4.7956" ,
      "fcodeName" : "populated place" ,
      "toponymName" : "Noordhaffel" ,
      "fcl" : "P" ,
      "name" : "Noordhaffel" ,
      "fcode" : "PPL" ,
      "geonameId" : 2749887 ,
      "lat" : "53.04144" ,
      "adminName1" : "North Holland" ,
      "population" : 0
    } , {
      "countryId" : "2750405" ,
      "adminCode1" : "07" ,
      "countryName" : "Netherlands" ,
      "fclName" : "mountain,hill,rock,... " ,
      "countryCode" : "NL" ,
      "lng" : "4.73629" ,
      "fcodeName" : "hill" ,
      "toponymName" : "Ockesnol" ,
      "fcl" : "T" ,
      "name" : "Ockesnol" ,
      "fcode" : "HLL" ,
      "geonameId" : 2749738 ,
      "lat" : "53.04509" ,
      "adminName1" : "North Holland" ,
      "population" : 0
    } , {
      "countryId" : "2750405" ,
      "adminCode1" : "07" ,
      "countryName" : "Netherlands" ,
      "fclName" : "city, village,..." ,
      "countryCode" : "NL" ,
      "lng" : "4.80417" ,
      "fcodeName" : "populated place" ,
      "toponymName" : "Ongeren" ,
      "fcl" : "P" ,
      "name" : "Ongeren" ,
      "fcode" : "PPL" ,
      "geonameId" : 2749592 ,
      "lat" : "53.07167" ,
      "adminName1" : "North Holland" ,
      "population" : 0
    } , {
      "countryId" : "2750405" ,
      "adminCode1" : "07" ,
      "countryName" : "Netherlands" ,
      "fclName" : "mountain,hill,rock,... " ,
      "countryCode" : "NL" ,
      "lng" : "4.72658" ,
      "fcodeName" : "beach" ,
      "toponymName" : "Onrust" ,
      "fcl" : "T" ,
      "name" : "Onrust" ,
      "fcode" : "BCH" ,
      "geonameId" : 2749584 ,
      "lat" : "52.99082" ,
      "adminName1" : "North Holland" ,
      "population" : 0
    } , {
      "countryId" : "2750405" ,
      "adminCode1" : "07" ,
      "countryName" : "Netherlands" ,
      "fclName" : "city, village,..." ,
      "countryCode" : "NL" ,
      "lng" : "4.89167" ,
      "fcodeName" : "populated place" ,
      "toponymName" : "Oost" ,
      "fcl" : "P" ,
      "name" : "Oost" ,
      "fcode" : "PPL" ,
      "geonameId" : 2749551 ,
      "lat" : "53.0975" ,
      "adminName1" : "North Holland" ,
      "population" : 0
    } , {
      "countryId" : "2750405" ,
      "adminCode1" : "07" ,
      "countryName" : "Netherlands" ,
      "fclName" : "city, village,..." ,
      "countryCode" : "NL" ,
      "lng" : "4.875" ,
      "fcodeName" : "populated place" ,
      "toponymName" : "Oosterend" ,
      "fcl" : "P" ,
      "name" : "Oosterend" ,
      "fcode" : "PPL" ,
      "geonameId" : 2749475 ,
      "lat" : "53.085" ,
      "adminName1" : "North Holland" ,
      "population" : 0
    } , {
      "countryId" : "2750405" ,
      "adminCode1" : "07" ,
      "countryName" : "Netherlands" ,
      "fclName" : "mountain,hill,rock,... " ,
      "countryCode" : "NL" ,
      "lng" : "4.9" ,
      "fcodeName" : "point" ,
      "toponymName" : "Oostkaap" ,
      "fcl" : "T" ,
      "name" : "Oostkaap" ,
      "fcode" : "PT" ,
      "geonameId" : 2749363 ,
      "lat" : "53.08333" ,
      "adminName1" : "North Holland" ,
      "population" : 0
    } , {
      "countryId" : "2750405" ,
      "adminCode1" : "07" ,
      "countryName" : "Netherlands" ,
      "fclName" : "city, village,..." ,
      "countryCode" : "NL" ,
      "lng" : "4.81667" ,
      "fcodeName" : "populated place" ,
      "toponymName" : "Oude Schans" ,
      "fcl" : "P" ,
      "name" : "Oude Schans" ,
      "fcode" : "PPL" ,
      "geonameId" : 2749011 ,
      "lat" : "53.03333" ,
      "adminName1" : "North Holland" ,
      "population" : 0
    } , {
      "countryId" : "2750405" ,
      "adminCode1" : "07" ,
      "countryName" : "Netherlands" ,
      "fclName" : "city, village,..." ,
      "countryCode" : "NL" ,
      "lng" : "4.84722" ,
      "fcodeName" : "populated place" ,
      "toponymName" : "Oudeschild" ,
      "fcl" : "P" ,
      "name" : "Oudeschild" ,
      "fcode" : "PPL" ,
      "geonameId" : 2749009 ,
      "lat" : "53.03917" ,
      "adminName1" : "North Holland" ,
      "population" : 0
    } , {
      "countryId" : "2750405" ,
      "adminCode1" : "07" ,
      "countryName" : "Netherlands" ,
      "fclName" : "parks,area, ..." ,
      "countryCode" : "NL" ,
      "lng" : "4.76667" ,
      "fcodeName" : "nature reserve" ,
      "toponymName" : "Petten" ,
      "fcl" : "L" ,
      "name" : "Petten" ,
      "fcode" : "RESN" ,
      "geonameId" : 2748630 ,
      "lat" : "53.01667" ,
      "adminName1" : "North Holland" ,
      "population" : 0
    } , {
      "countryId" : "2750405" ,
      "adminCode1" : "07" ,
      "countryName" : "Netherlands" ,
      "fclName" : "mountain,hill,rock,... " ,
      "countryCode" : "NL" ,
      "lng" : "4.72853" ,
      "fcodeName" : "dune(s)" ,
      "toponymName" : "Pieter Rozenvlak" ,
      "fcl" : "T" ,
      "name" : "Pieter Rozenvlak" ,
      "fcode" : "DUNE" ,
      "geonameId" : 2748599 ,
      "lat" : "53.03655" ,
      "adminName1" : "North Holland" ,
      "population" : 0
    } , {
      "countryId" : "2750405" ,
      "adminCode1" : "07" ,
      "countryName" : "Netherlands" ,
      "fclName" : "mountain,hill,rock,... " ,
      "countryCode" : "NL" ,
      "lng" : "4.8336" ,
      "fcodeName" : "polder" ,
      "toponymName" : "Polder Eijerland" ,
      "fcl" : "T" ,
      "name" : "Polder Eijerland" ,
      "fcode" : "PLDR" ,
      "geonameId" : 2756287 ,
      "lat" : "53.12304" ,
      "adminName1" : "North Holland" ,
      "population" : 0
    } , {
      "countryId" : "2750405" ,
      "adminCode1" : "07" ,
      "countryName" : "Netherlands" ,
      "fclName" : "mountain,hill,rock,... " ,
      "countryCode" : "NL" ,
      "lng" : "4.80619" ,
      "fcodeName" : "polder" ,
      "toponymName" : "Polder Waal en Burg" ,
      "fcl" : "T" ,
      "name" : "Polder Waal en Burg" ,
      "fcode" : "PLDR" ,
      "geonameId" : 2745129 ,
      "lat" : "53.08613" ,
      "adminName1" : "North Holland" ,
      "population" : 0
    } , {
      "countryId" : "2750405" ,
      "adminCode1" : "07" ,
      "countryName" : "Netherlands" ,
      "fclName" : "mountain,hill,rock,... " ,
      "countryCode" : "NL" ,
      "lng" : "4.8931" ,
      "fcodeName" : "polder" ,
      "toponymName" : "Polder de Eendracht" ,
      "fcl" : "T" ,
      "name" : "Polder de Eendracht" ,
      "fcode" : "PLDR" ,
      "geonameId" : 2756374 ,
      "lat" : "53.1375" ,
      "adminName1" : "North Holland" ,
      "population" : 0
    } , {
      "countryId" : "2750405" ,
      "adminCode1" : "07" ,
      "countryName" : "Netherlands" ,
      "fclName" : "mountain,hill,rock,... " ,
      "countryCode" : "NL" ,
      "lng" : "4.88398" ,
      "fcodeName" : "polder" ,
      "toponymName" : "Polder het Noorden" ,
      "fcl" : "T" ,
      "name" : "Polder het Noorden" ,
      "fcode" : "PLDR" ,
      "geonameId" : 2749963 ,
      "lat" : "53.11241" ,
      "adminName1" : "North Holland" ,
      "population" : 0
    } , {
      "countryId" : "2750405" ,
      "adminCode1" : "07" ,
      "countryName" : "Netherlands" ,
      "fclName" : "parks,area, ..." ,
      "countryCode" : "NL" ,
      "lng" : "4.71667" ,
      "fcodeName" : "locality" ,
      "toponymName" : "Pompevlak" ,
      "fcl" : "L" ,
      "name" : "Pompevlak" ,
      "fcode" : "LCTY" ,
      "geonameId" : 2748508 ,
      "lat" : "53.01667" ,
      "adminName1" : "North Holland" ,
      "population" : 0
    } , {
      "countryId" : "2750405" ,
      "adminCode1" : "07" ,
      "countryName" : "Netherlands" ,
      "fclName" : "mountain,hill,rock,... " ,
      "countryCode" : "NL" ,
      "lng" : "4.79136" ,
      "fcodeName" : "polder" ,
      "toponymName" : "Prins Hendrikpolder" ,
      "fcl" : "T" ,
      "name" : "Prins Hendrikpolder" ,
      "fcode" : "PLDR" ,
      "geonameId" : 2748433 ,
      "lat" : "53.01925" ,
      "adminName1" : "North Holland" ,
      "population" : 0
    } , {
      "countryId" : "2750405" ,
      "adminCode1" : "07" ,
      "countryName" : "Netherlands" ,
      "fclName" : "stream, lake, ..." ,
      "countryCode" : "NL" ,
      "lng" : "4.87688" ,
      "fcodeName" : "tidal creek(s)" ,
      "toponymName" : "Roggesloot" ,
      "fcl" : "H" ,
      "name" : "Roggesloot" ,
      "fcode" : "CRKT" ,
      "geonameId" : 2747985 ,
      "lat" : "53.15663" ,
      "adminName1" : "North Holland" ,
      "population" : 0
    } , {
      "countryId" : "2750405" ,
      "adminCode1" : "07" ,
      "countryName" : "Netherlands" ,
      "fclName" : "mountain,hill,rock,... " ,
      "countryCode" : "NL" ,
      "lng" : "4.77036" ,
      "fcodeName" : "dune(s)" ,
      "toponymName" : "Schilbolsnol" ,
      "fcl" : "T" ,
      "name" : "Schilbolsnol" ,
      "fcode" : "DUNE" ,
      "geonameId" : 2747578 ,
      "lat" : "53.0079" ,
      "adminName1" : "North Holland" ,
      "population" : 0
    } , {
      "countryId" : "2750405" ,
      "adminCode1" : "07" ,
      "countryName" : "Netherlands" ,
      "fclName" : "mountain,hill,rock,... " ,
      "countryCode" : "NL" ,
      "lng" : "4.74346" ,
      "fcodeName" : "dune(s)" ,
      "toponymName" : "Siborsnollen" ,
      "fcl" : "T" ,
      "name" : "Siborsnollen" ,
      "fcode" : "DUNE" ,
      "geonameId" : 2747344 ,
      "lat" : "53.01885" ,
      "adminName1" : "North Holland" ,
      "population" : 0
    } , {
      "countryId" : "2750405" ,
      "adminCode1" : "07" ,
      "countryName" : "Netherlands" ,
      "fclName" : "mountain,hill,rock,... " ,
      "countryCode" : "NL" ,
      "lng" : "4.79832" ,
      "fcodeName" : "dune(s)" ,
      "toponymName" : "Slufterbollen" ,
      "fcl" : "T" ,
      "name" : "Slufterbollen" ,
      "fcode" : "DUNE" ,
      "geonameId" : 2747120 ,
      "lat" : "53.12923" ,
      "adminName1" : "North Holland" ,
      "population" : 0
    } , {
      "countryId" : "2750405" ,
      "adminCode1" : "07" ,
      "countryName" : "Netherlands" ,
      "fclName" : "parks,area, ..." ,
      "countryCode" : "NL" ,
      "lng" : "4.85" ,
      "fcodeName" : "locality" ,
      "toponymName" : "Sluftervallei" ,
      "fcl" : "L" ,
      "name" : "Sluftervallei" ,
      "fcode" : "LCTY" ,
      "geonameId" : 2747119 ,
      "lat" : "53.15" ,
      "adminName1" : "North Holland" ,
      "population" : 0
    } , {
      "countryId" : "2750405" ,
      "adminCode1" : "07" ,
      "countryName" : "Netherlands" ,
      "fclName" : "mountain,hill,rock,... " ,
      "countryCode" : "NL" ,
      "lng" : "4.71667" ,
      "fcodeName" : "dune(s)" ,
      "toponymName" : "Smidsbollen" ,
      "fcl" : "T" ,
      "name" : "Smidsbollen" ,
      "fcode" : "DUNE" ,
      "geonameId" : 2747081 ,
      "lat" : "53.03333" ,
      "adminName1" : "North Holland" ,
      "population" : 0
    } , {
      "countryId" : "2750405" ,
      "adminCode1" : "07" ,
      "countryName" : "Netherlands" ,
      "fclName" : "city, village,..." ,
      "countryCode" : "NL" ,
      "lng" : "4.85" ,
      "fcodeName" : "populated place" ,
      "toponymName" : "Spang" ,
      "fcl" : "P" ,
      "name" : "Spang" ,
      "fcode" : "PPL" ,
      "geonameId" : 2746977 ,
      "lat" : "53.0725" ,
      "adminName1" : "North Holland" ,
      "population" : 0
    } , {
      "countryId" : "2750405" ,
      "adminCode1" : "07" ,
      "countryName" : "Netherlands" ,
      "fclName" : "city, village,..." ,
      "countryCode" : "NL" ,
      "lng" : "4.85694" ,
      "fcodeName" : "populated place" ,
      "toponymName" : "Spijkdorp" ,
      "fcl" : "P" ,
      "name" : "Spijkdorp" ,
      "fcode" : "PPL" ,
      "geonameId" : 2746933 ,
      "lat" : "53.07417" ,
      "adminName1" : "North Holland" ,
      "population" : 0
    } , {
      "countryId" : "2750405" ,
      "adminCode1" : "07" ,
      "countryName" : "Netherlands" ,
      "fclName" : "mountain,hill,rock,... " ,
      "countryCode" : "NL" ,
      "lng" : "4.83333" ,
      "fcodeName" : "island" ,
      "toponymName" : "Texel" ,
      "fcl" : "T" ,
      "name" : "Texel" ,
      "fcode" : "ISL" ,
      "geonameId" : 2746385 ,
      "lat" : "53.08333" ,
      "adminName1" : "North Holland" ,
      "population" : 0
    } , {
      "countryId" : "2750405" ,
      "adminCode1" : "07" ,
      "countryName" : "Netherlands" ,
      "fclName" : "spot, building, farm" ,
      "countryCode" : "NL" ,
      "lng" : "4.8266" ,
      "fcodeName" : "airport" ,
      "toponymName" : "Texel International Airport" ,
      "fcl" : "S" ,
      "name" : "Texel International Airport" ,
      "fcode" : "AIRP" ,
      "geonameId" : 8555930 ,
      "lat" : "53.11731" ,
      "adminName1" : "North Holland" ,
      "population" : 0
    } , {
      "countryId" : "2750405" ,
      "adminCode1" : "07" ,
      "countryName" : "Netherlands" ,
      "fclName" : "city, village,..." ,
      "countryCode" : "NL" ,
      "lng" : "4.81274" ,
      "fcodeName" : "populated place" ,
      "toponymName" : "Tienhoven" ,
      "fcl" : "P" ,
      "name" : "Tienhoven" ,
      "fcode" : "PPL" ,
      "geonameId" : 2746319 ,
      "lat" : "53.06705" ,
      "adminName1" : "North Holland" ,
      "population" : 0
    } , {
      "countryId" : "2750405" ,
      "adminCode1" : "07" ,
      "countryName" : "Netherlands" ,
      "fclName" : "parks,area, ..." ,
      "countryCode" : "NL" ,
      "lng" : "4.85" ,
      "fcodeName" : "nature reserve" ,
      "toponymName" : "Troelje" ,
      "fcl" : "L" ,
      "name" : "Troelje" ,
      "fcode" : "RESN" ,
      "geonameId" : 2746149 ,
      "lat" : "53.05" ,
      "adminName1" : "North Holland" ,
      "population" : 0
    } , {
      "countryId" : "2750405" ,
      "adminCode1" : "07" ,
      "countryName" : "Netherlands" ,
      "fclName" : "city, village,..." ,
      "countryCode" : "NL" ,
      "lng" : "4.81789" ,
      "fcodeName" : "populated place" ,
      "toponymName" : "Westergeest" ,
      "fcl" : "P" ,
      "name" : "Westergeest" ,
      "fcode" : "PPL" ,
      "geonameId" : 2744745 ,
      "lat" : "53.03538" ,
      "adminName1" : "North Holland" ,
      "population" : 0
    } , {
      "countryId" : "2750405" ,
      "adminCode1" : "07" ,
      "countryName" : "Netherlands" ,
      "fclName" : "parks,area, ..." ,
      "countryCode" : "NL" ,
      "lng" : "4.82481" ,
      "fcodeName" : "nature reserve" ,
      "toponymName" : "Westerkolk" ,
      "fcl" : "L" ,
      "name" : "Westerkolk" ,
      "fcode" : "RESN" ,
      "geonameId" : 2744722 ,
      "lat" : "53.08944" ,
      "adminName1" : "North Holland" ,
      "population" : 0
    } , {
      "countryId" : "2750405" ,
      "adminCode1" : "07" ,
      "countryName" : "Netherlands" ,
      "fclName" : "city, village,..." ,
      "countryCode" : "NL" ,
      "lng" : "4.76389" ,
      "fcodeName" : "populated place" ,
      "toponymName" : "Westermient" ,
      "fcl" : "P" ,
      "name" : "Westermient" ,
      "fcode" : "PPL" ,
      "geonameId" : 2744708 ,
      "lat" : "53.05917" ,
      "adminName1" : "North Holland" ,
      "population" : 0
    } , {
      "countryId" : "2750405" ,
      "adminCode1" : "07" ,
      "countryName" : "Netherlands" ,
      "fclName" : "city, village,..." ,
      "countryCode" : "NL" ,
      "lng" : "4.88333" ,
      "fcodeName" : "populated place" ,
      "toponymName" : "Zevenhuizen" ,
      "fcl" : "P" ,
      "name" : "Zevenhuizen" ,
      "fcode" : "PPL" ,
      "geonameId" : 2743927 ,
      "lat" : "53.0875" ,
      "adminName1" : "North Holland" ,
      "population" : 0
    } , {
      "countryId" : "2750405" ,
      "adminCode1" : "07" ,
      "countryName" : "Netherlands" ,
      "fclName" : "city, village,..." ,
      "countryCode" : "NL" ,
      "lng" : "4.81944" ,
      "fcodeName" : "populated place" ,
      "toponymName" : "Zuid-Eierland" ,
      "fcl" : "P" ,
      "name" : "Zuid-Eierland" ,
      "fcode" : "PPL" ,
      "geonameId" : 2743792 ,
      "lat" : "53.1125" ,
      "adminName1" : "North Holland" ,
      "population" : 0
    } , {
      "countryId" : "2750405" ,
      "adminCode1" : "07" ,
      "countryName" : "Netherlands" ,
      "fclName" : "city, village,..." ,
      "countryCode" : "NL" ,
      "lng" : "4.80515" ,
      "fcodeName" : "populated place" ,
      "toponymName" : "Zuidhaffel" ,
      "fcl" : "P" ,
      "name" : "Zuidhaffel" ,
      "fcode" : "PPL" ,
      "geonameId" : 2743708 ,
      "lat" : "53.03768" ,
      "adminName1" : "North Holland" ,
      "population" : 0
    } , {
      "countryId" : "2750405" ,
      "adminCode1" : "07" ,
      "countryName" : "Netherlands" ,
      "fclName" : "city, village,..." ,
      "countryCode" : "NL" ,
      "lng" : "4.78472" ,
      "fcodeName" : "populated place" ,
      "toponymName" : "t Horntje" ,
      "fcl" : "P" ,
      "name" : "t Horntje" ,
      "fcode" : "PPL" ,
      "geonameId" : 2746338 ,
      "lat" : "53.005" ,
      "adminName1" : "North Holland" ,
      "population" : 0
    }
  ]
}