{
  "postalCodes" : [
    {
      "adminCode3" : "1631" ,
      "adminName2" : "Glarus" ,
      "adminName3" : "Glarus Süd" ,
      "adminCode2" : "800" ,
      "distance" : "0" ,
      "adminCode1" : "GL" ,
      "postalCode" : "8775" ,
      "countryCode" : "CH" ,
      "lng" : 8.998612768346122 ,
      "placeName" : "Luchsingen" ,
      "lat" : 46.98012557612474 ,
      "adminName1" : "Kanton Glarus"
    } , {
      "adminCode3" : "1631" ,
      "adminName2" : "Glarus" ,
      "adminName3" : "Glarus Süd" ,
      "adminCode2" : "800" ,
      "distance" : "2.50758" ,
      "adminCode1" : "GL" ,
      "postalCode" : "8774" ,
      "countryCode" : "CH" ,
      "lng" : 9.031657981449875 ,
      "placeName" : "Leuggelbach" ,
      "lat" : 46.97956309637888 ,
      "adminName1" : "Kanton Glarus"
    } , {
      "adminCode3" : "1631" ,
      "adminName2" : "Glarus" ,
      "adminName3" : "Glarus Süd" ,
      "adminCode2" : "800" ,
      "distance" : "3.6754" ,
      "adminCode1" : "GL" ,
      "postalCode" : "8772" ,
      "countryCode" : "CH" ,
      "lng" : 9.045686144787961 ,
      "placeName" : "Nidfurn" ,
      "lat" : 46.98795940542871 ,
      "adminName1" : "Kanton Glarus"
    } , {
      "adminCode3" : "1631" ,
      "adminName2" : "Glarus" ,
      "adminName3" : "Glarus Süd" ,
      "adminCode2" : "800" ,
      "distance" : "4.23984" ,
      "adminCode1" : "GL" ,
      "postalCode" : "8775" ,
      "countryCode" : "CH" ,
      "lng" : 9.047528329629122 ,
      "placeName" : "Hätzingen" ,
      "lat" : 46.96168923881248 ,
      "adminName1" : "Kanton Glarus"
    } , {
      "adminCode3" : "1631" ,
      "adminName2" : "Glarus" ,
      "adminName3" : "Glarus Süd" ,
      "adminCode2" : "800" ,
      "distance" : "4.31659" ,
      "adminCode1" : "GL" ,
      "postalCode" : "8784" ,
      "countryCode" : "CH" ,
      "lng" : 8.986816908673704 ,
      "placeName" : "Braunwald" ,
      "lat" : 46.942147614929716 ,
      "adminName1" : "Kanton Glarus"
    }
  ]
}